{"billboards":[{"rds":"","noLight":0,"cityName":"Пермь","type":1,"angle":354,"areaId":156,"kind":"12x4 (2) SB         ","bookAvailableDateStr":"","id":151081,"distance":"","grp":5.86,"roundedAngle":350,"price":65000,"side":"А","address":"Гагарина б-р  (Южная дамба)","name":"Гагарина б-р  (Южная дамба)","mounting":7500,"gid":"PMSS10001А","ots":33.8,"longtitude":56.286728,"latitude":57.9948,"light":1,"imageURL":"//images.russoutdoor.ru/panelFotos/16/151081-info.jpg","top":"","subAreaId":156},{"rds":"","noLight":0,"cityName":"Пермь","type":1,"angle":534,"areaId":156,"kind":"12x4 (2) SB         ","bookAvailableDateStr":"","id":151082,"distance":"","grp":5.13,"roundedAngle":170,"price":62000,"side":"Б","address":"Гагарина б-р  (Южная дамба)","name":"Гагарина б-р  (Южная дамба)","mounting":7500,"gid":"PMSS10001Б","ots":32.3,"longtitude":56.286728,"latitude":57.9948,"light":1,"imageURL":"//images.russoutdoor.ru/panelFotos/16/151082-info.jpg","top":"","subAreaId":156},{"rds":"","noLight":0,"cityName":"Пермь","type":1,"angle":12,"areaId":156,"kind":"12x4 (2) SB         ","bookAvailableDateStr":"","id":151083,"distance":"","grp":7.72,"roundedAngle":10,"price":66000,"side":"А","address":"Космонавтов ш. /  Плеханова ул. (ТЦ \"Виват\")","name":"Космонавтов ш. /  Плеханова ул. (ТЦ \"Виват\")","mounting":7500,"gid":"PMSS10002А","ots":46.7,"longtitude":56.21058,"latitude":57.99425,"light":1,"imageURL":"//images.russoutdoor.ru/panelFotos/16/151083-info.jpg","top":"","subAreaId":156},{"rds":"","noLight":0,"cityName":"Пермь","type":1,"angle":192,"areaId":156,"kind":"12x4 (2) SB         ","bookAvailableDateStr":"","id":151084,"distance":"","grp":7.02,"roundedAngle":190,"price":64000,"side":"Б","address":"Космонавтов ш. /  Плеханова ул. (ТЦ \"Виват\")","name":"Космонавтов ш. /  Плеханова ул. (ТЦ \"Виват\")","mounting":7500,"gid":"PMSS10002Б","ots":45.7,"longtitude":56.21058,"latitude":57.99425,"light":1,"imageURL":"//images.russoutdoor.ru/panelFotos/16/151084-info.jpg","top":"","subAreaId":156},{"rds":"","noLight":0,"cityName":"Пермь","type":1,"angle":21,"areaId":156,"kind":"12x4 (2) SB         ","bookAvailableDateStr":"","id":156482,"distance":"","grp":7.03,"roundedAngle":20,"price":66000,"side":"А","address":"Космонавтов ш. / Малкова ул.","name":"Космонавтов ш. / Малкова ул.","mounting":7500,"gid":"PMSS10003А","ots":44.45,"longtitude":56.197037,"latitude":57.9911,"light":1,"imageURL":"//images.russoutdoor.ru/panelFotos/16/156482-info.jpg","top":"","subAreaId":156},{"rds":"","noLight":0,"cityName":"Пермь","type":1,"angle":201,"areaId":156,"kind":"12x4 (2) SB         ","bookAvailableDateStr":"","id":156483,"distance":"","grp":6.75,"roundedAngle":200,"price":63000,"side":"Б","address":"Космонавтов ш. / Малкова ул.","name":"Космонавтов ш. / Малкова ул.","mounting":7500,"gid":"PMSS10003Б","ots":46.2,"longtitude":56.197037,"latitude":57.9911,"light":1,"imageURL":"//images.russoutdoor.ru/panelFotos/16/156483-info.jpg","top":"","subAreaId":156},{"rds":"","noLight":0,"cityName":"Пермь","type":1,"angle":303,"areaId":156,"kind":"Юнипол (12x5)       ","bookAvailableDateStr":"","id":621369,"distance":"","grp":8.47,"roundedAngle":300,"price":66000,"side":"А","address":"Космонавтов шоссе,  Госзнак (УНИПОЛ)","name":"Космонавтов шоссе,  Госзнак (УНИПОЛ)","mounting":10169.49,"gid":"PMSS20123А1","ots":49.25,"longtitude":56.192715,"latitude":57.99028,"light":1,"imageURL":"//images.russoutdoor.ru/panelFotos/63/621369-info.jpg","top":""},{"rds":"","noLight":0,"cityName":"Пермь","type":1,"angle":303,"areaId":156,"kind":"Юнипол (12x5)       ","bookAvailableDateStr":"","id":621370,"distance":"","grp":6.08,"roundedAngle":300,"price":66000,"side":"А","address":"Космонавтов шоссе,  Госзнак (УНИПОЛ)","name":"Космонавтов шоссе,  Госзнак (УНИПОЛ)","mounting":10169.49,"gid":"PMSS20123А2","ots":47.75,"longtitude":56.192715,"latitude":57.99028,"light":1,"imageURL":"//images.russoutdoor.ru/panelFotos/63/621370-info.jpg","top":""},{"rds":"","noLight":0,"cityName":"Пермь","type":1,"angle":153,"areaId":156,"kind":"Юнипол (12x5)       ","bookAvailableDateStr":"","id":575795,"distance":"","grp":4.02,"roundedAngle":150,"price":66000,"side":"А","address":"Уинская ул. (мост)  (УНИПОЛ)","name":"Уинская ул. (мост)  (УНИПОЛ)","mounting":10169.49,"gid":"PMSS20124А","ots":20.4,"longtitude":56.29859,"latitude":58.007835,"light":1,"imageURL":"//images.russoutdoor.ru/panelFotos/58/575795-info.jpg","top":"","subAreaId":156},{"rds":"","noLight":0,"cityName":"Пермь","type":1,"angle":333,"areaId":156,"kind":"Юнипол (12x5)       ","bookAvailableDateStr":"","id":575796,"distance":"","grp":3.84,"roundedAngle":330,"price":60000,"side":"Б","address":"Уинская ул. (мост)  (УНИПОЛ)","name":"Уинская ул. (мост)  (УНИПОЛ)","mounting":10169.49,"gid":"PMSS20124Б","ots":20.4,"longtitude":56.29859,"latitude":58.007835,"light":1,"imageURL":"//images.russoutdoor.ru/panelFotos/58/575796-info.jpg","top":"","subAreaId":156}]}
